{
  "version": 0.6,
  "generator": "Overpass API 0.7.62.11 87bfad18",
  "osm3s": {
    "timestamp_osm_base": "2026-03-24T23:20:12Z",
    "timestamp_areas_base": "2026-03-24T18:41:01Z",
    "copyright": "The data included in this document is from www.openstreetmap.org. The data is made available under ODbL."
  },
  "elements": [
    {
      "type": "node",
      "id": 979976380,
      "lat": -22.8104486,
      "lon": -47.0769043,
      "tags": {
        "amenity": "pharmacy",
        "healthcare": "pharmacy",
        "name": "Companhia das Ervas"
      }
    },
    {
      "type": "node",
      "id": 1143281449,
      "lat": -22.8227354,
      "lon": -47.0700358,
      "tags": {
        "amenity": "pharmacy",
        "healthcare": "pharmacy",
        "name": "Vitoria"
      }
    },
    {
      "type": "node",
      "id": 1143281453,
      "lat": -22.8347654,
      "lon": -47.0788463,
      "tags": {
        "addr:city": "Campinas",
        "addr:housenumber": "448",
        "addr:postcode": "13085-510",
        "addr:street": "Avenida Albino Jos\u00e9 Barbosa de Oliveira",
        "addr:suburb": "Bar\u00e3o Geraldo",
        "amenity": "pharmacy",
        "brand": "Drogasil",
        "brand:wikidata": "Q5308185",
        "brand:wikipedia": "pt:Drogasil",
        "dispensing": "yes",
        "drive_through": "no",
        "healthcare": "pharmacy",
        "name": "Drogasil",
        "opening_hours": "24/7",
        "wheelchair": "yes"
      }
    },
    {
      "type": "node",
      "id": 1520334844,
      "lat": -22.8891189,
      "lon": -47.0658473,
      "tags": {
        "addr:city": "Campinas",
        "addr:housenumber": "2",
        "addr:postcode": "13073-370",
        "addr:street": "Pra\u00e7a Doutor Souza Siqueira",
        "addr:suburb": "Jardim Guanabara",
        "amenity": "pharmacy",
        "brand": "Droga Raia",
        "brand:wikidata": "Q10357101",
        "brand:wikipedia": "pt:RaiaDrogasil",
        "dispensing": "yes",
        "healthcare": "pharmacy",
        "mobile": "+55 (19) 97171-4171",
        "name": "Droga Raia",
        "opening_hours": "Mo-Su 07:00-23:00"
      }
    },
    {
      "type": "node",
      "id": 1548792780,
      "lat": -22.8849531,
      "lon": -47.0647116,
      "tags": {
        "addr:city": "Campinas",
        "addr:housenumber": "499",
        "addr:postcode": "13073-010",
        "addr:street": "Rua Buarque de Macedo",
        "addr:suburb": "Jardim Brasil",
        "amenity": "pharmacy",
        "brand": "Drogarias Farm\u00e1xima",
        "brand:wikidata": "Q131062491",
        "healthcare": "pharmacy",
        "name": "Drogarias Farm\u00e1xima",
        "phone": "+55 (19) 3213-2030"
      }
    },
    {
      "type": "node",
      "id": 1556171260,
      "lat": -22.8781594,
      "lon": -46.9673223,
      "tags": {
        "amenity": "pharmacy",
        "brand": "Drogaria S\u00e3o Paulo",
        "brand:wikidata": "Q5308184",
        "healthcare": "pharmacy",
        "name": "Drogaria S\u00e3o Paulo"
      }
    },
    {
      "type": "node",
      "id": 1603738032,
      "lat": -22.9061665,
      "lon": -47.0636001,
      "tags": {
        "addr:city": "Campinas",
        "addr:street": "Avenida Doutor Campos Sales",
        "amenity": "pharmacy",
        "check_date": "2025-01-07",
        "dispensing": "no",
        "healthcare": "pharmacy",
        "name": "Drog\u00e3o Super"
      }
    },
    {
      "type": "node",
      "id": 1603738133,
      "lat": -22.9059348,
      "lon": -47.0635732,
      "tags": {
        "addr:city": "Campinas",
        "addr:street": "Avenida Doutor Campos Sales",
        "amenity": "pharmacy",
        "dispensing": "no",
        "healthcare": "pharmacy",
        "name": "Drogaria Familiar"
      }
    },
    {
      "type": "node",
      "id": 1603738208,
      "lat": -22.9058603,
      "lon": -47.0634564,
      "tags": {
        "addr:city": "Campinas",
        "addr:street": "Avenida Doutor Campos Sales",
        "amenity": "pharmacy",
        "dispensing": "no",
        "healthcare": "pharmacy",
        "name": "Drogaria Campe\u00e3"
      }
    },
    {
      "type": "node",
      "id": 1607871214,
      "lat": -22.8992683,
      "lon": -47.0828677,
      "tags": {
        "addr:city": "Campinas",
        "addr:housenumber": "1226",
        "addr:postcode": "13070-751",
        "addr:street": "Avenida Governador Pedro de Toledo",
        "addr:suburb": "Bonfim",
        "amenity": "pharmacy",
        "dispensing": "yes",
        "healthcare": "pharmacy",
        "mobile": "+55 (19) 98941-1353",
        "name": "Drogaria Leal",
        "phone": "+55 (19) 3241-9024",
        "wheelchair": "no"
      }
    },
    {
      "type": "node",
      "id": 1608009333,
      "lat": -22.9186946,
      "lon": -47.1095418,
      "tags": {
        "amenity": "pharmacy",
        "brand": "Drogasil",
        "brand:wikidata": "Q5308185",
        "healthcare": "pharmacy",
        "name": "Drogasil",
        "name:pt": "Drogasil",
        "wheelchair": "yes"
      }
    },
    {
      "type": "node",
      "id": 1609517654,
      "lat": -22.9004735,
      "lon": -47.0637489,
      "tags": {
        "addr:city": "Campinas",
        "amenity": "pharmacy",
        "healthcare": "pharmacy",
        "name": "Farma Futura"
      }
    },
    {
      "type": "node",
      "id": 1611055696,
      "lat": -22.8923445,
      "lon": -47.0774646,
      "tags": {
        "addr:city": "Campinas",
        "addr:housenumber": "930",
        "addr:postcode": "13070-711",
        "addr:street": "Avenida Doutor Alberto Sarmento",
        "addr:suburb": "Bonfim",
        "amenity": "pharmacy",
        "healthcare": "pharmacy",
        "mobile": "+55 (19) 97101-4241",
        "name": "Botica Artesanal",
        "phone": "+55 (19) 3243-1536",
        "website": "https://boticaartesanal.com"
      }
    },
    {
      "type": "node",
      "id": 1622921600,
      "lat": -22.891983,
      "lon": -47.0635068,
      "tags": {
        "addr:city": "Campinas",
        "addr:housenumber": "1472",
        "addr:postcode": "13020-432",
        "addr:street": "Avenida Bar\u00e3o de Itapura",
        "addr:suburb": "Botafogo",
        "amenity": "pharmacy",
        "brand": "Drogarias Farm\u00e1xima",
        "brand:wikidata": "Q131062491",
        "healthcare": "pharmacy",
        "name": "Drogarias Farm\u00e1xima",
        "phone": "+55 (19) 3232-9719",
        "website": "https://www.redefarmaxima.com.br/"
      }
    },
    {
      "type": "node",
      "id": 1637936795,
      "lat": -22.8940686,
      "lon": -47.061126,
      "tags": {
        "addr:city": "Campinas",
        "addr:housenumber": "793",
        "addr:postcode": "13023-002",
        "addr:street": "Avenida Orosimbo Maia",
        "addr:suburb": "Vila Itapura",
        "amenity": "pharmacy",
        "brand": "Drogaria S\u00e3o Paulo",
        "brand:wikidata": "Q5308184",
        "brand:wikipedia": "en:Grupo DPSP",
        "dispensing": "yes",
        "healthcare": "pharmacy",
        "name": "Drogaria S\u00e3o Paulo",
        "opening_hours": "Mo-Su 07:00-23:00"
      }
    },
    {
      "type": "node",
      "id": 1670800285,
      "lat": -22.8984422,
      "lon": -47.0525338,
      "tags": {
        "addr:street": "Rua Coronel Quirino",
        "amenity": "pharmacy",
        "brand": "Drogasil",
        "brand:wikidata": "Q5308185",
        "brand:wikipedia": "pt:Drogasil",
        "healthcare": "pharmacy",
        "name": "Drogasil",
        "wheelchair": "yes"
      }
    },
    {
      "type": "node",
      "id": 1706051636,
      "lat": -22.9038236,
      "lon": -47.0692667,
      "tags": {
        "amenity": "pharmacy",
        "brand": "Drogaria S\u00e3o Paulo",
        "brand:wikidata": "Q5308184",
        "brand:wikipedia": "en:Grupo DPSP",
        "healthcare": "pharmacy",
        "name": "Drogaria S\u00e3o Paulo",
        "name:pt": "Drogaria S\u00e3o Paulo"
      }
    },
    {
      "type": "node",
      "id": 1712160731,
      "lat": -22.9031406,
      "lon": -47.0535656,
      "tags": {
        "addr:housenumber": "652",
        "addr:postcode": "13010-050",
        "addr:street": "Rua Concei\u00e7\u00e3o",
        "amenity": "pharmacy",
        "brand": "Drogaria S\u00e3o Paulo",
        "brand:wikidata": "Q5308184",
        "brand:wikipedia": "en:Grupo DPSP",
        "healthcare": "pharmacy",
        "name": "Drogaria S\u00e3o Paulo",
        "opening_hours": "24/7",
        "phone": "+55 19 32554884",
        "website": "https://www.drogariasaopaulo.com.br/",
        "wheelchair": "yes"
      }
    },
    {
      "type": "node",
      "id": 1712160732,
      "lat": -22.90306,
      "lon": -47.0533917,
      "tags": {
        "amenity": "pharmacy",
        "brand": "Drogasil",
        "brand:wikidata": "Q5308185",
        "brand:wikipedia": "pt:Drogasil",
        "healthcare": "pharmacy",
        "name": "Drogasil",
        "website": "https://www.drogasil.com.br/",
        "wheelchair": "yes"
      }
    },
    {
      "type": "node",
      "id": 1719982548,
      "lat": -22.9030683,
      "lon": -47.0607106,
      "tags": {
        "amenity": "pharmacy",
        "brand": "Droga Raia",
        "brand:wikidata": "Q10357101",
        "brand:wikipedia": "pt:RaiaDrogasil",
        "healthcare": "pharmacy",
        "name": "Droga Raia",
        "opening_hours": "24/7"
      }
    },
    {
      "type": "node",
      "id": 1734559213,
      "lat": -22.8885665,
      "lon": -47.0609142,
      "tags": {
        "addr:housenumber": "1934",
        "addr:street": "Avenida Bar\u00e3o de Itapura",
        "amenity": "pharmacy",
        "dispensing": "yes",
        "healthcare": "pharmacy",
        "name": "Drog\u00e3o Super"
      }
    },
    {
      "type": "node",
      "id": 1756560040,
      "lat": -22.8973473,
      "lon": -47.0806816,
      "tags": {
        "amenity": "pharmacy",
        "healthcare": "pharmacy",
        "name": "Farma Plus"
      }
    },
    {
      "type": "node",
      "id": 1756565991,
      "lat": -22.8998033,
      "lon": -47.0820012,
      "tags": {
        "amenity": "pharmacy",
        "brand": "Pague Menos",
        "brand:wikidata": "Q7124466",
        "brand:wikipedia": "pt:Pague Menos",
        "healthcare": "pharmacy",
        "name": "Pague Menos"
      }
    },
    {
      "type": "node",
      "id": 1760445144,
      "lat": -22.9083335,
      "lon": -47.0870027,
      "tags": {
        "amenity": "pharmacy",
        "brand": "Drogasil",
        "brand:wikidata": "Q5308185",
        "brand:wikipedia": "pt:Drogasil",
        "healthcare": "pharmacy",
        "name": "Drogasil",
        "operator": "Drogasil",
        "wheelchair": "yes"
      }
    },
    {
      "type": "node",
      "id": 1760464606,
      "lat": -22.9156069,
      "lon": -47.1036967,
      "tags": {
        "amenity": "pharmacy",
        "healthcare": "pharmacy",
        "name": "Farmaxima"
      }
    },
    {
      "type": "node",
      "id": 1760490095,
      "lat": -22.918527,
      "lon": -47.1089726,
      "tags": {
        "amenity": "pharmacy",
        "healthcare": "pharmacy",
        "name": "Droga Marques"
      }
    },
    {
      "type": "node",
      "id": 1799695179,
      "lat": -22.8240391,
      "lon": -47.0349651,
      "tags": {
        "amenity": "pharmacy",
        "brand": "Drogarias Farm\u00e1xima",
        "brand:wikidata": "Q131062491",
        "healthcare": "pharmacy",
        "name": "Drogarias Farm\u00e1xima",
        "wheelchair": "yes"
      }
    },
    {
      "type": "node",
      "id": 2012313400,
      "lat": -22.9196498,
      "lon": -47.1040642,
      "tags": {
        "amenity": "pharmacy",
        "healthcare": "pharmacy",
        "name": "Medfarma"
      }
    },
    {
      "type": "node",
      "id": 2354979136,
      "lat": -22.8245485,
      "lon": -47.0355204,
      "tags": {
        "amenity": "pharmacy",
        "healthcare": "pharmacy",
        "wheelchair": "yes"
      }
    },
    {
      "type": "node",
      "id": 2800344793,
      "lat": -22.8783214,
      "lon": -47.0441444,
      "tags": {
        "addr:city": "Campinas",
        "addr:housenumber": "1318",
        "addr:postcode": "13076-000",
        "addr:street": "Avenida Nossa Senhora de F\u00e1tima",
        "amenity": "pharmacy",
        "brand": "Drogasil",
        "brand:wikidata": "Q5308185",
        "brand:wikipedia": "pt:Drogasil",
        "healthcare": "pharmacy",
        "name": "Drogasil",
        "wheelchair": "yes"
      }
    },
    {
      "type": "node",
      "id": 2800346733,
      "lat": -22.8782596,
      "lon": -47.0445548,
      "tags": {
        "addr:city": "Campinas",
        "addr:housenumber": "1287",
        "addr:postcode": "13076-000",
        "addr:street": "Avenida Nossa Senhora de F\u00e1tima",
        "amenity": "pharmacy",
        "brand": "Drogaria S\u00e3o Paulo",
        "brand:wikidata": "Q5308184",
        "brand:wikipedia": "en:Grupo DPSP",
        "healthcare": "pharmacy",
        "name": "Drogaria S\u00e3o Paulo",
        "phone": "+55 19 3295-9058"
      }
    },
    {
      "type": "node",
      "id": 2805083502,
      "lat": -22.8789329,
      "lon": -47.0363191,
      "tags": {
        "addr:city": "Campinas",
        "addr:housenumber": "71",
        "addr:postcode": "13091-133",
        "addr:street": "Avenida Palmital",
        "addr:suburb": "Jardim Flamboyant",
        "amenity": "pharmacy",
        "healthcare": "pharmacy",
        "name": "Multidrogas",
        "phone": "+55 (19) 3201-7303",
        "website": "https://redemultidrogas.com.br/"
      }
    },
    {
      "type": "node",
      "id": 3305131050,
      "lat": -22.9657708,
      "lon": -47.132296,
      "tags": {
        "addr:city": "Campinas",
        "addr:street": "Rua Armando Frederico Renganeschi",
        "amenity": "pharmacy",
        "healthcare": "pharmacy"
      }
    },
    {
      "type": "node",
      "id": 3306855777,
      "lat": -22.9668335,
      "lon": -47.1389335,
      "tags": {
        "addr:city": "Campinas",
        "addr:street": "Avenida Ruy Rodrigues",
        "amenity": "pharmacy",
        "healthcare": "pharmacy"
      }
    },
    {
      "type": "node",
      "id": 3611196772,
      "lat": -22.905955,
      "lon": -47.0553712,
      "tags": {
        "amenity": "pharmacy",
        "brand": "Droga Raia",
        "brand:wikidata": "Q10357101",
        "brand:wikipedia": "pt:RaiaDrogasil",
        "healthcare": "pharmacy",
        "name": "Droga Raia"
      }
    },
    {
      "type": "node",
      "id": 3699304617,
      "lat": -22.8890279,
      "lon": -47.0329825,
      "tags": {
        "addr:city": "Campinas",
        "addr:housenumber": "1266",
        "addr:postcode": "13091-140",
        "addr:street": "Avenida Jos\u00e9 Bonif\u00e1cio",
        "addr:suburb": "Jardim Flamboyant",
        "amenity": "pharmacy",
        "brand": "Drogaria S\u00e3o Paulo",
        "brand:wikidata": "Q5308184",
        "dispensing": "yes",
        "healthcare": "pharmacy",
        "name": "Drogaria S\u00e3o Paulo"
      }
    },
    {
      "type": "node",
      "id": 3964391059,
      "lat": -22.8911037,
      "lon": -47.0627512,
      "tags": {
        "addr:city": "Campinas",
        "addr:housenumber": "360",
        "addr:postcode": "13023-075",
        "addr:street": "Avenida Brasil",
        "addr:suburb": "Vila Itapura",
        "amenity": "pharmacy",
        "brand": "Droga Raia",
        "brand:wikidata": "Q10357101",
        "brand:wikipedia": "pt:RaiaDrogasil",
        "healthcare": "pharmacy",
        "mobile": "+55 (19) 99930-3699",
        "name": "Droga Raia",
        "opening_hours": "24/7"
      }
    },
    {
      "type": "node",
      "id": 4072059913,
      "lat": -22.8943503,
      "lon": -47.0540225,
      "tags": {
        "addr:city": "Campinas",
        "addr:housenumber": "347",
        "addr:street": "Avenida Coronel Silva Teles",
        "addr:suburb": "Cambu\u00ed",
        "amenity": "pharmacy",
        "drive_through": "no",
        "healthcare": "pharmacy",
        "name": "Ao Pharmaceutico",
        "website": "http://www.aopharmaceutico.com.br/unidades/campinas/"
      }
    },
    {
      "type": "node",
      "id": 4205522897,
      "lat": -22.8981552,
      "lon": -47.0560044,
      "tags": {
        "addr:city": "Campinas",
        "addr:street": "Avenida J\u00falio de Mesquita",
        "addr:suburb": "Cambu\u00ed",
        "amenity": "pharmacy",
        "brand": "Droga Raia",
        "brand:wikidata": "Q10357101",
        "brand:wikipedia": "pt:RaiaDrogasil",
        "healthcare": "pharmacy",
        "name": "Droga Raia"
      }
    },
    {
      "type": "node",
      "id": 4205522898,
      "lat": -22.8987027,
      "lon": -47.0556658,
      "tags": {
        "addr:city": "Campinas",
        "addr:housenumber": "797",
        "addr:street": "Avenida J\u00falio de Mesquita",
        "addr:suburb": "Cambu\u00ed",
        "amenity": "pharmacy",
        "brand": "Drogaria S\u00e3o Paulo",
        "brand:wikidata": "Q5308184",
        "brand:wikipedia": "en:Grupo DPSP",
        "healthcare": "pharmacy",
        "name": "Drogaria S\u00e3o Paulo"
      }
    },
    {
      "type": "node",
      "id": 4205522909,
      "lat": -22.899109,
      "lon": -47.055379,
      "tags": {
        "addr:city": "Campinas",
        "addr:housenumber": "741",
        "addr:street": "Avenida J\u00falio de Mesquita",
        "addr:suburb": "Cambu\u00ed",
        "amenity": "pharmacy",
        "brand": "Pague Menos",
        "brand:wikidata": "Q7124466",
        "brand:wikipedia": "pt:Pague Menos",
        "healthcare": "pharmacy",
        "name": "Pague Menos"
      }
    },
    {
      "type": "node",
      "id": 4523600191,
      "lat": -22.937258,
      "lon": -47.0497733,
      "tags": {
        "addr:street": "Avenida Washington Luis",
        "amenity": "pharmacy",
        "brand": "Drogasil",
        "brand:wikidata": "Q5308185",
        "brand:wikipedia": "pt:Drogasil",
        "healthcare": "pharmacy",
        "name": "Drogasil",
        "name:en": "Drogasil",
        "name:pt": "Drogasil",
        "wheelchair": "yes"
      }
    },
    {
      "type": "node",
      "id": 4559125367,
      "lat": -22.8252358,
      "lon": -47.0671584,
      "tags": {
        "amenity": "pharmacy",
        "healthcare": "pharmacy",
        "name": "Drogaria do Campus"
      }
    },
    {
      "type": "node",
      "id": 4559198538,
      "lat": -22.8929529,
      "lon": -47.056135,
      "tags": {
        "addr:housenumber": "361",
        "addr:street": "Rua Santos Dumont",
        "amenity": "pharmacy",
        "healthcare": "pharmacy",
        "name": "Lab Brasil"
      }
    },
    {
      "type": "node",
      "id": 4559198555,
      "lat": -22.9006621,
      "lon": -47.0521446,
      "tags": {
        "amenity": "pharmacy",
        "brand": "Droga Raia",
        "brand:wikidata": "Q10357101",
        "brand:wikipedia": "pt:RaiaDrogasil",
        "healthcare": "pharmacy",
        "name": "Droga Raia"
      }
    },
    {
      "type": "node",
      "id": 4587811469,
      "lat": -22.8945747,
      "lon": -47.0544988,
      "tags": {
        "amenity": "pharmacy",
        "healthcare": "pharmacy",
        "name": "F\u00f3rmula e Cia"
      }
    },
    {
      "type": "node",
      "id": 4589623291,
      "lat": -22.895436,
      "lon": -47.0562985,
      "tags": {
        "addr:city": "Campinas",
        "addr:housenumber": "89",
        "addr:postcode": "13024-000",
        "addr:street": "Avenida Coronel Silva Teles",
        "addr:suburb": "Cambu\u00ed",
        "amenity": "pharmacy",
        "healthcare": "pharmacy",
        "name": "Droga Brasil"
      }
    },
    {
      "type": "node",
      "id": 4767950233,
      "lat": -22.90588,
      "lon": -47.0381092,
      "tags": {
        "amenity": "pharmacy",
        "healthcare": "pharmacy",
        "name": "Drogaria SP"
      }
    },
    {
      "type": "node",
      "id": 4851818290,
      "lat": -22.8931306,
      "lon": -47.0565206,
      "tags": {
        "amenity": "pharmacy",
        "brand": "Drogasil",
        "brand:wikidata": "Q5308185",
        "brand:wikipedia": "pt:Drogasil",
        "healthcare": "pharmacy",
        "name": "Drogasil",
        "wheelchair": "yes"
      }
    },
    {
      "type": "node",
      "id": 5046309821,
      "lat": -22.9506506,
      "lon": -47.1863181,
      "tags": {
        "addr:housenumber": "43",
        "addr:street": "Rua Armando M\u00e1rio Tozzi",
        "amenity": "pharmacy",
        "email": "contato@drogal.com.br",
        "healthcare": "pharmacy",
        "name": "Drogal",
        "name:pt": "Drogal",
        "opening_hours": "Mo-Su 08:00-23:00",
        "phone": "19 3221 1991",
        "website": "https://www.drogal.com.br/"
      }
    },
    {
      "type": "node",
      "id": 5046457223,
      "lat": -22.9497748,
      "lon": -47.1866889,
      "tags": {
        "amenity": "pharmacy",
        "brand": "Drogarias Farm\u00e1xima",
        "brand:wikidata": "Q131062491",
        "healthcare": "pharmacy",
        "name": "Drogarias Farm\u00e1xima",
        "name:pt": "Farmaxima"
      }
    },
    {
      "type": "node",
      "id": 5046459423,
      "lat": -22.9487477,
      "lon": -47.1865722,
      "tags": {
        "amenity": "pharmacy",
        "healthcare": "pharmacy"
      }
    },
    {
      "type": "node",
      "id": 5053928622,
      "lat": -22.9257851,
      "lon": -47.1267861,
      "tags": {
        "amenity": "pharmacy",
        "brand": "Drogasil",
        "brand:wikidata": "Q5308185",
        "brand:wikipedia": "pt:Drogasil",
        "healthcare": "pharmacy",
        "name": "Drogasil",
        "name:pt": "Drogasil",
        "wheelchair": "yes"
      }
    },
    {
      "type": "node",
      "id": 5054986521,
      "lat": -22.9370722,
      "lon": -47.1590379,
      "tags": {
        "addr:street": "Avenida John Boyd Dunlop",
        "amenity": "pharmacy",
        "dispensing": "yes",
        "drive_through": "no",
        "healthcare": "pharmacy",
        "mobile": "+55 11 98727 3561",
        "name": "Dr.Pharma Popular",
        "phone": "+55 19 3267 3380"
      }
    },
    {
      "type": "node",
      "id": 5054986621,
      "lat": -22.9373358,
      "lon": -47.158481,
      "tags": {
        "addr:street": "Avenida John Boyd Dunlop",
        "amenity": "pharmacy",
        "contact:phone": "+55 19 3261 4666",
        "dispensing": "yes",
        "drive_through": "no",
        "healthcare": "pharmacy",
        "mobile": "+55 19 3221 1667",
        "name": "Drograria Serv Farma",
        "opening_hours": "Mo-Su,PH 08:00-22:00"
      }
    },
    {
      "type": "node",
      "id": 5058747221,
      "lat": -22.9299695,
      "lon": -47.0870839,
      "tags": {
        "amenity": "pharmacy",
        "healthcare": "pharmacy"
      }
    },
    {
      "type": "node",
      "id": 5062191736,
      "lat": -22.9481874,
      "lon": -47.1853808,
      "tags": {
        "amenity": "pharmacy",
        "healthcare": "pharmacy",
        "name": "Rede Farma do Povo",
        "name:pt": "Rede Farma do Povo"
      }
    },
    {
      "type": "node",
      "id": 5084247522,
      "lat": -22.9269543,
      "lon": -47.1259939,
      "tags": {
        "amenity": "pharmacy",
        "healthcare": "pharmacy"
      }
    },
    {
      "type": "node",
      "id": 5436431456,
      "lat": -22.8267739,
      "lon": -47.0810555,
      "tags": {
        "addr:city": "Campinas",
        "addr:housenumber": "183",
        "addr:postcode": "13084-012",
        "addr:street": "Avenida Santa Isabel",
        "addr:suburb": "Bar\u00e3o Geraldo",
        "amenity": "pharmacy",
        "healthcare": "pharmacy",
        "name": "Farmais",
        "opening_hours": "Mo-Fr 07:00-23:00; Sa 07:00-22:30; Su 07:00-22:00",
        "phone": "+55 (19) 3289-1045"
      }
    },
    {
      "type": "node",
      "id": 5495031721,
      "lat": -22.8831088,
      "lon": -47.0338282,
      "tags": {
        "addr:city": "Campinas",
        "addr:housenumber": "1504",
        "addr:postcode": "13091-101",
        "addr:street": "Rua Mogi Gua\u00e7u",
        "amenity": "pharmacy",
        "brand": "Droga Raia",
        "brand:wikidata": "Q10357101",
        "brand:wikipedia": "pt:RaiaDrogasil",
        "dispensing": "yes",
        "healthcare": "pharmacy",
        "name": "Droga Raia",
        "opening_hours": "Mo-Su 07:00-23:00",
        "phone": "+55 19 2514-0050"
      }
    },
    {
      "type": "node",
      "id": 5559958022,
      "lat": -22.9468609,
      "lon": -47.1868379,
      "tags": {
        "amenity": "pharmacy",
        "healthcare": "pharmacy",
        "name": "Farma Bento"
      }
    },
    {
      "type": "node",
      "id": 5559963801,
      "lat": -22.9470194,
      "lon": -47.186902,
      "tags": {
        "addr:housenumber": "10",
        "addr:postcode": "13058-510",
        "addr:street": "Rua Manoel Machado Pereira",
        "amenity": "pharmacy",
        "brand": "Drogasil",
        "brand:wikidata": "Q5308185",
        "brand:wikipedia": "pt:Drogasil",
        "healthcare": "pharmacy",
        "name": "Drogasil",
        "opening_hours": "Mo-Su 08:00-22:00",
        "phone": "19 3221 0690",
        "website": "https://www.drogasil.com.br/",
        "wheelchair": "yes"
      }
    },
    {
      "type": "node",
      "id": 5894328685,
      "lat": -22.9201818,
      "lon": -47.1115535,
      "tags": {
        "addr:housenumber": "1269",
        "addr:street": "Rua Oswaldo Oscar Barthelson",
        "amenity": "pharmacy",
        "brand": "Drogaria S\u00e3o Paulo",
        "brand:wikidata": "Q5308184",
        "brand:wikipedia": "en:Grupo DPSP",
        "healthcare": "pharmacy",
        "name": "Drogaria S\u00e3o Paulo",
        "opening_hours": "Mo-Su 07:00-23:00",
        "phone": "19 2519 0276"
      }
    },
    {
      "type": "node",
      "id": 5894328785,
      "lat": -22.919534,
      "lon": -47.1098203,
      "tags": {
        "addr:housenumber": "1097",
        "addr:street": "Rua Oswaldo Oscar Barthelson",
        "amenity": "pharmacy",
        "healthcare": "pharmacy",
        "name": "Drogaria Familiar",
        "name:pt": "Ultrafamiliar",
        "opening_hours": "Mo-Sa 07:00-22:00",
        "phone": "19 3227 7272",
        "website": "https://www.ultrafarma.com.br/mobile.html"
      }
    },
    {
      "type": "node",
      "id": 5909661187,
      "lat": -22.9251734,
      "lon": -47.0566739,
      "tags": {
        "amenity": "pharmacy",
        "brand": "Drogaria S\u00e3o Paulo",
        "brand:wikidata": "Q5308184",
        "brand:wikipedia": "en:Grupo DPSP",
        "dispensing": "yes",
        "drive_through": "no",
        "healthcare": "pharmacy",
        "name": "Drogaria S\u00e3o Paulo"
      }
    },
    {
      "type": "node",
      "id": 5922490798,
      "lat": -22.9305156,
      "lon": -47.1091689,
      "tags": {
        "amenity": "pharmacy",
        "healthcare": "pharmacy"
      }
    },
    {
      "type": "node",
      "id": 5937112085,
      "lat": -22.9287797,
      "lon": -47.0548923,
      "tags": {
        "amenity": "pharmacy",
        "brand": "Pague Menos",
        "brand:wikidata": "Q7124466",
        "brand:wikipedia": "pt:Pague Menos",
        "dispensing": "yes",
        "drive_through": "no",
        "healthcare": "pharmacy",
        "name": "Pague Menos"
      }
    },
    {
      "type": "node",
      "id": 5955387585,
      "lat": -22.9306399,
      "lon": -47.0871922,
      "tags": {
        "amenity": "pharmacy",
        "brand": "Drogasil",
        "brand:wikidata": "Q5308185",
        "brand:wikipedia": "pt:Drogasil",
        "healthcare": "pharmacy",
        "name": "Drogasil",
        "wheelchair": "yes"
      }
    },
    {
      "type": "node",
      "id": 5966931488,
      "lat": -22.906139,
      "lon": -47.0640144,
      "tags": {
        "amenity": "pharmacy",
        "check_date": "2025-01-07",
        "healthcare": "pharmacy",
        "name": "Super Popular"
      }
    },
    {
      "type": "node",
      "id": 6153910875,
      "lat": -22.9100655,
      "lon": -47.0535096,
      "tags": {
        "amenity": "pharmacy",
        "brand": "Drogarias Farm\u00e1xima",
        "brand:wikidata": "Q131062491",
        "healthcare": "pharmacy",
        "name": "Drogarias Farm\u00e1xima"
      }
    },
    {
      "type": "node",
      "id": 6356527487,
      "lat": -22.9355177,
      "lon": -47.0508769,
      "tags": {
        "amenity": "pharmacy",
        "brand": "Droga Raia",
        "brand:wikidata": "Q10357101",
        "brand:wikipedia": "pt:RaiaDrogasil",
        "dispensing": "yes",
        "healthcare": "pharmacy",
        "name": "Droga Raia"
      }
    },
    {
      "type": "node",
      "id": 6380889285,
      "lat": -22.9172882,
      "lon": -47.0549766,
      "tags": {
        "amenity": "pharmacy",
        "brand": "Pague Menos",
        "brand:wikidata": "Q7124466",
        "brand:wikipedia": "pt:Pague Menos",
        "healthcare": "pharmacy",
        "name": "Pague Menos"
      }
    },
    {
      "type": "node",
      "id": 7107954324,
      "lat": -22.8276987,
      "lon": -47.0800173,
      "tags": {
        "addr:city": "Campinas",
        "addr:housenumber": "15",
        "addr:postcode": "13084-012",
        "addr:street": "Avenida Santa Isabel",
        "addr:suburb": "Bar\u00e3o Geraldo",
        "amenity": "pharmacy",
        "healthcare": "pharmacy",
        "mobile": "+55 (19) 98859-1998",
        "name": "Botica da Terra",
        "phone": "+55 (19) 3289-9422"
      }
    },
    {
      "type": "node",
      "id": 7107954326,
      "lat": -22.8971237,
      "lon": -47.0519146,
      "tags": {
        "amenity": "pharmacy",
        "brand": "Droga Raia",
        "brand:wikidata": "Q10357101",
        "brand:wikipedia": "pt:RaiaDrogasil",
        "healthcare": "pharmacy",
        "name": "Droga Raia"
      }
    },
    {
      "type": "node",
      "id": 7107977423,
      "lat": -22.8090109,
      "lon": -47.0784564,
      "tags": {
        "amenity": "pharmacy",
        "healthcare": "pharmacy",
        "name": "Farma Bar\u00e3o"
      }
    },
    {
      "type": "node",
      "id": 7108011440,
      "lat": -22.895211,
      "lon": -47.0523146,
      "tags": {
        "amenity": "pharmacy",
        "brand": "Drogaria S\u00e3o Paulo",
        "brand:wikidata": "Q5308184",
        "brand:wikipedia": "en:Grupo DPSP",
        "healthcare": "pharmacy",
        "name": "Drogaria S\u00e3o Paulo"
      }
    },
    {
      "type": "node",
      "id": 7108024143,
      "lat": -22.8974183,
      "lon": -47.0530009,
      "tags": {
        "addr:housenumber": "1193",
        "amenity": "pharmacy",
        "healthcare": "pharmacy",
        "name": "A Homeop\u00e1tica"
      }
    },
    {
      "type": "node",
      "id": 7392400554,
      "lat": -22.9825852,
      "lon": -47.1206931,
      "tags": {
        "amenity": "pharmacy",
        "brand": "Farmahorro",
        "brand:wikidata": "Q20015002",
        "brand:wikipedia": "es:Farmahorro",
        "dispensing": "yes",
        "healthcare": "pharmacy",
        "name": "Farmahorro"
      }
    },
    {
      "type": "node",
      "id": 7392400555,
      "lat": -22.9778008,
      "lon": -47.1279492,
      "tags": {
        "amenity": "pharmacy",
        "dispensing": "yes",
        "healthcare": "pharmacy",
        "name": "Farmadic"
      }
    },
    {
      "type": "node",
      "id": 8445430718,
      "lat": -22.8908912,
      "lon": -47.0761152,
      "tags": {
        "addr:city": "Campinas",
        "addr:housenumber": "2116",
        "addr:postcode": "13070-000",
        "addr:street": "Avenida Andrade Neves",
        "addr:suburb": "Jardim Chapad\u00e3o",
        "amenity": "pharmacy",
        "brand": "Droga Raia",
        "brand:wikidata": "Q10357101",
        "brand:wikipedia": "pt:RaiaDrogasil",
        "dispensing": "yes",
        "healthcare": "pharmacy",
        "mobile": "+55 (19) 99615-9217",
        "name": "Droga Raia",
        "opening_hours": "24/7"
      }
    },
    {
      "type": "node",
      "id": 8446736881,
      "lat": -22.8894585,
      "lon": -47.0776848,
      "tags": {
        "addr:city": "Campinas",
        "addr:housenumber": "2339",
        "addr:postcode": "13070-001",
        "addr:street": "Avenida Andrade Neves",
        "addr:suburb": "Jardim Chapad\u00e3o",
        "amenity": "pharmacy",
        "branch": "Castelo",
        "brand": "Drogarias Farm\u00e1xima",
        "brand:wikidata": "Q131062491",
        "dispensing": "yes",
        "healthcare": "pharmacy",
        "name": "Drogarias Farm\u00e1xima",
        "phone": "+55 (19) 3212-3318",
        "website": "https://www.farmaximacastelo.com.br/"
      }
    },
    {
      "type": "node",
      "id": 8476144456,
      "lat": -22.8846227,
      "lon": -47.0696979,
      "tags": {
        "addr:city": "Campinas",
        "addr:housenumber": "1370",
        "addr:postcode": "13073-148",
        "addr:street": "Avenida Brasil",
        "addr:suburb": "Jardim Guanabara",
        "amenity": "pharmacy",
        "dispensing": "yes",
        "drive_through": "no",
        "healthcare": "pharmacy",
        "name": "Farm\u00e1cia Carcajon",
        "opening_hours": "Mo-Fr 08:00-18:00; Sa 08:00-13:00",
        "phone": "+55 (19) 3243-1904",
        "website": "http://www.carcajon.com.br/"
      }
    },
    {
      "type": "node",
      "id": 11592221254,
      "lat": -22.8560985,
      "lon": -47.0464543,
      "tags": {
        "amenity": "pharmacy",
        "brand": "Drogaria S\u00e3o Paulo",
        "brand:wikidata": "Q5308184",
        "healthcare": "pharmacy",
        "name": "Drogaria S\u00e3o Paulo",
        "wheelchair": "yes"
      }
    },
    {
      "type": "node",
      "id": 11888148569,
      "lat": -22.8305475,
      "lon": -47.0785499,
      "tags": {
        "addr:city": "Campinas",
        "addr:housenumber": "884",
        "addr:postcode": "13084-008",
        "addr:street": "Avenida Albino Jos\u00e9 Barbosa de Oliveira",
        "addr:suburb": "Bar\u00e3o Geraldo",
        "amenity": "pharmacy",
        "brand": "Drogaria S\u00e3o Paulo",
        "brand:wikidata": "Q5308184",
        "healthcare": "pharmacy",
        "name": "Drogaria S\u00e3o Paulo",
        "name:en": "S\u00e3o Paulo Drug Store",
        "opening_hours": "Mo-Fr 07:00-22:50",
        "website": "https://www.drogariasaopaulo.com.br/"
      }
    },
    {
      "type": "node",
      "id": 12160961765,
      "lat": -22.8818954,
      "lon": -47.0639921,
      "tags": {
        "addr:city": "Campinas",
        "addr:housenumber": "219",
        "addr:postcode": "13075-290",
        "addr:street": "Avenida Monsenhor Jer\u00f4nimo Baggio",
        "addr:suburb": "Jardim Nossa Senhora Auxiliadora",
        "amenity": "pharmacy",
        "healthcare": "pharmacy",
        "name": "Rede Drog\u00e3o Popular",
        "opening_hours": "Mo-Su 07:00-00:00"
      }
    },
    {
      "type": "node",
      "id": 12160961766,
      "lat": -22.8819942,
      "lon": -47.0638952,
      "tags": {
        "addr:city": "Campinas",
        "addr:housenumber": "227",
        "addr:postcode": "13075-350",
        "addr:street": "Avenida Monsenhor Jer\u00f4nimo Baggio",
        "addr:suburb": "Jardim Nossa Senhora Auxiliadora",
        "amenity": "pharmacy",
        "healthcare": "pharmacy",
        "name": "Drogaria da Lagoa",
        "opening_hours": "Mo-Fr 08:00-19:00; Sa 08:00-13:00"
      }
    },
    {
      "type": "node",
      "id": 12176737996,
      "lat": -22.8872121,
      "lon": -47.075537,
      "tags": {
        "addr:city": "Campinas",
        "addr:housenumber": "310",
        "addr:postcode": "13070-055",
        "addr:street": "Avenida Francisco Jos\u00e9 de Camargo Andrade",
        "addr:suburb": "Jardim Chapad\u00e3o",
        "amenity": "pharmacy",
        "healthcare": "pharmacy",
        "name": "Vet F\u00f3rmula - Manipula\u00e7\u00e3o Veterin\u00e1ria",
        "phone": "+55 (19) 3365-7747"
      }
    },
    {
      "type": "node",
      "id": 12194280963,
      "lat": -22.8904137,
      "lon": -47.0752968,
      "tags": {
        "addr:city": "Campinas",
        "addr:housenumber": "122",
        "addr:postcode": "13070-143",
        "addr:street": "Rua Orlando Carpino",
        "addr:suburb": "Castelo",
        "amenity": "pharmacy",
        "healthcare": "pharmacy",
        "mobile": "+55 (19) 99369-1141",
        "name": "Botica Erva Doce",
        "opening_hours": "Su-Fr 08:00-18:00; Sa 08:00-12:00",
        "phone": "+55 (19) 3241-6479"
      }
    },
    {
      "type": "node",
      "id": 12201856996,
      "lat": -22.8943063,
      "lon": -47.0645865,
      "tags": {
        "addr:city": "Campinas",
        "addr:housenumber": "504",
        "addr:postcode": "13023-030",
        "addr:street": "Rua Barata Ribeiro",
        "addr:suburb": "Vila Itapura",
        "amenity": "pharmacy",
        "healthcare": "pharmacy",
        "name": "Specialista Farm\u00e1cia de Manipula\u00e7\u00e3o",
        "opening_hours": "Mo-Fr 08:00-18:00",
        "phone": "+55 (19) 3234-2387"
      }
    },
    {
      "type": "node",
      "id": 12204832209,
      "lat": -22.892129,
      "lon": -47.0718228,
      "tags": {
        "addr:city": "Campinas",
        "addr:housenumber": "508",
        "addr:postcode": "13073-221",
        "addr:street": "Rua Frei Manuel da Ressurrei\u00e7\u00e3o",
        "addr:suburb": "Jardim Guanabara",
        "amenity": "pharmacy",
        "healthcare": "pharmacy",
        "mobile": "+55 (19) 98191-0776",
        "name": "Farmalu",
        "opening_hours": "Mo-Fr 09:00-18:00; Sa 09:00-12:00",
        "phone": "+55 (19) 3241-6900"
      }
    },
    {
      "type": "node",
      "id": 12209566184,
      "lat": -22.8909361,
      "lon": -47.0755641,
      "tags": {
        "addr:city": "Campinas",
        "addr:housenumber": "60",
        "addr:postcode": "13070-143",
        "addr:street": "Rua Orlando Carpino",
        "addr:suburb": "Jardim Chapad\u00e3o",
        "amenity": "pharmacy",
        "healthcare": "pharmacy",
        "mobile": "+55 (19) 99797-9693",
        "name": "Animalia Farma",
        "opening_hours": "Mo-Fr 08:30-18:00; Sa 08:00-12:30",
        "phone": "+55 (19) 3241-2279",
        "website": "https://animaliafarma.com.br/campinas/"
      }
    },
    {
      "type": "node",
      "id": 12231638212,
      "lat": -22.8834563,
      "lon": -47.0733171,
      "tags": {
        "addr:city": "Campinas",
        "addr:housenumber": "780",
        "addr:postcode": "13070-055",
        "addr:street": "Avenida Francisco Jos\u00e9 de Camargo Andrade",
        "addr:suburb": "Jardim Chapad\u00e3o",
        "amenity": "pharmacy",
        "healthcare": "pharmacy",
        "mobile": "+55 (19) 9 9507-9722",
        "name": "F\u00e1rmaco",
        "opening_hours": "Mo-Fr 08:00-18:00; Sa 08:00-13:00",
        "phone": "+55 (19) 3381-0100",
        "website": "https://www.farmacofarma.com.br"
      }
    },
    {
      "type": "node",
      "id": 12273180593,
      "lat": -22.8897303,
      "lon": -47.0763578,
      "tags": {
        "addr:city": "Campinas",
        "addr:housenumber": "2260",
        "addr:postcode": "13070-001",
        "addr:street": "Avenida Andrade Neves",
        "addr:suburb": "Jardim Chapad\u00e3o",
        "amenity": "pharmacy",
        "healthcare": "pharmacy",
        "mobile": "+55 (19) 97136-1602",
        "name": "Ultrafarma",
        "phone": "+55 (19) 2660-4266"
      }
    },
    {
      "type": "node",
      "id": 12291622455,
      "lat": -22.8886986,
      "lon": -47.0613974,
      "tags": {
        "addr:city": "Campinas",
        "addr:housenumber": "1903",
        "addr:postcode": "13020-433",
        "addr:street": "Avenida Bar\u00e3o de Itapura",
        "addr:suburb": "Botafogo",
        "amenity": "pharmacy",
        "brand": "Drogasil",
        "brand:wikidata": "Q5308185",
        "healthcare": "pharmacy",
        "name": "Drogasil",
        "wheelchair": "yes"
      }
    },
    {
      "type": "node",
      "id": 12312306941,
      "lat": -22.8953498,
      "lon": -47.0661785,
      "tags": {
        "addr:city": "Campinas",
        "addr:housenumber": "2262",
        "addr:postcode": "13023-102",
        "addr:street": "Rua Jos\u00e9 Paulino",
        "addr:suburb": "Vila Itapura",
        "amenity": "pharmacy",
        "healthcare": "pharmacy",
        "mobile": "+55 (19) 99546-4875",
        "name": "Bios\u00edntese",
        "opening_hours": "Mo-Fr 08:30-18:00; Sa 08:30-12:00",
        "phone": "+55 (19) 3234-2828"
      }
    },
    {
      "type": "node",
      "id": 12362342387,
      "lat": -22.8854464,
      "lon": -47.058424,
      "tags": {
        "addr:city": "Campinas",
        "addr:housenumber": "2370",
        "addr:postcode": "13073-300",
        "addr:street": "Avenida Bar\u00e3o de Itapura",
        "addr:suburb": "Jardim Guanabara",
        "amenity": "pharmacy",
        "healthcare": "pharmacy",
        "mobile": "+55 (19) 98155-7755",
        "name": "Substrata",
        "phone": "+55 (19) 3252-1689",
        "website": "https://substrata.com.br/"
      }
    },
    {
      "type": "node",
      "id": 12395965301,
      "lat": -22.8887582,
      "lon": -47.0327731,
      "tags": {
        "addr:city": "Campinas",
        "addr:housenumber": "1488",
        "addr:postcode": "13090-885",
        "addr:street": "Rua Presidente Alves",
        "addr:suburb": "Jardim Alto da Barra",
        "amenity": "pharmacy",
        "brand": "Drogasil",
        "brand:wikidata": "Q5308185",
        "dispensing": "yes",
        "healthcare": "pharmacy",
        "name": "Drogasil",
        "opening_hours": "24/7",
        "wheelchair": "yes"
      }
    },
    {
      "type": "node",
      "id": 12409201996,
      "lat": -22.8976628,
      "lon": -47.0625305,
      "tags": {
        "addr:city": "Campinas",
        "addr:housenumber": "415",
        "addr:postcode": "13023-002",
        "addr:street": "Avenida Orosimbo Maia",
        "addr:suburb": "Vila Itapura",
        "amenity": "pharmacy",
        "healthcare": "pharmacy",
        "mobile": "+55 (19) 99656-8312",
        "name": "Neof\u00f3rmula Manipula\u00e7\u00e3o & Homeopatia",
        "opening_hours": "Mo-Fr 08:00-18:00; Sa 09:00-13:00",
        "phone": "+55 (19) 3579 9404",
        "website": "https://neoformula.com.br"
      }
    },
    {
      "type": "node",
      "id": 12462861805,
      "lat": -22.8649055,
      "lon": -47.0540542,
      "tags": {
        "addr:city": "Campinas",
        "addr:housenumber": "1911",
        "addr:postcode": "13087-291",
        "addr:street": "Avenida Padre Almeida Garret",
        "addr:suburb": "Parque Taquaral",
        "amenity": "pharmacy",
        "dispensing": "yes",
        "healthcare": "pharmacy",
        "name": "Farm\u00e1cia Drogal",
        "opening_hours": "Mo-Su 07:00-23:00",
        "phone": "+55 (19) 3429-1229",
        "website": "https://www.drogal.com.br/"
      }
    },
    {
      "type": "node",
      "id": 12462876699,
      "lat": -22.8702243,
      "lon": -47.0637011,
      "tags": {
        "addr:city": "Campinas",
        "addr:housenumber": "1017",
        "addr:postcode": "13087-320",
        "addr:street": "Rua Padre Manoel Bernades",
        "addr:suburb": "Parque Taquaral",
        "amenity": "pharmacy",
        "healthcare": "pharmacy",
        "name": "Drogaria Tamavy"
      }
    },
    {
      "type": "node",
      "id": 12478307748,
      "lat": -22.8913857,
      "lon": -47.0685365,
      "tags": {
        "addr:city": "Campinas",
        "addr:housenumber": "36",
        "addr:postcode": "13073-240",
        "addr:street": "Rua Doutor Barros Monteiro",
        "addr:suburb": "Jardim Guanabara",
        "amenity": "pharmacy",
        "dispensing": "yes",
        "healthcare": "pharmacy",
        "name": "Drogaria S\u00e3o Carlos",
        "opening_hours": "Mo-Fr 08:00-19:00; Sa 08:00-12:00",
        "phone": "+55 (19) 3242-7121",
        "website": "https://drogariasaocarloscampinas.com.br/"
      }
    },
    {
      "type": "node",
      "id": 12582078801,
      "lat": -22.9512606,
      "lon": -47.1881441,
      "tags": {
        "addr:street": "Rua Manoel Machado Pereira",
        "amenity": "pharmacy",
        "email": "contato@drogal.com.br",
        "healthcare": "pharmacy",
        "name": "Drogal",
        "opening_hours": "Mo-Su 08:00-23:00",
        "website": "https://www.drogal.com.br/"
      }
    },
    {
      "type": "node",
      "id": 13109277701,
      "lat": -22.9510104,
      "lon": -47.1861564,
      "tags": {
        "addr:street": "Avenida Armando Mario Tozi",
        "amenity": "pharmacy",
        "healthcare": "pharmacy",
        "name": "Drog\u00e3o Popular",
        "phone": "9 9846-6829"
      }
    },
    {
      "type": "node",
      "id": 13421701371,
      "lat": -22.8258328,
      "lon": -47.0812518,
      "tags": {
        "addr:city": "Campinas",
        "addr:housenumber": "284",
        "addr:postcode": "13084-012",
        "addr:street": "Avenida Santa Isabel",
        "addr:suburb": "Bar\u00e3o Geraldo",
        "amenity": "pharmacy",
        "contact:instagram": "https://www.instagram.com/magispharma/",
        "drive_through": "no",
        "email": "atendimento@magispharma.com.br",
        "healthcare": "pharmacy",
        "mobile": "+55 19 98230-3200",
        "name": "MagisPharma Farm\u00e1cia de Manipula\u00e7\u00e3o e Homeopatia",
        "opening_hours": "Mo-Fr 08:30-18:00; Sa 8:30-12:30; PH off",
        "phone": "+55 19 3289-2319",
        "website": "https://magispharma.com.br/"
      }
    }
  ]
}